[
    {
        "name": "OPERA_L3_DSWx-HLS_T17TNM_20241005T162141Z_20241007T041400Z_S2A_30_v1.0_B10_DEM",
        "csv": "./csv/OPERA_L3_DSWx-HLS_T17TNM_20241005T162141Z_20241007T041400Z_S2A_30_v1.0_B10_DEM.csv",
        "image": "./png/OPERA_L3_DSWx-HLS_T17TNM_20241005T162141Z_20241007T041400Z_S2A_30_v1.0_B10_DEM.png",
        "tif": "./tif/OPERA_L3_DSWx-HLS_T17TNM_20241005T162141Z_20241007T041400Z_S2A_30_v1.0_B10_DEM.tif",
        "bounding_box": {
            "southwest": {
                "lat": 45.96555114804913,
                "lng": -81.00025812995321
            },
            "northeast": {
                "lat": 46.94462144093274,
                "lng": -79.55749190206173
            }
        }
    },
    {
        "name": "OPERA_L3_DSWx-HLS_T16TGQ_20241005T162141Z_20241007T030258Z_S2A_30_v1.0_B10_DEM",
        "csv": "./csv/OPERA_L3_DSWx-HLS_T16TGQ_20241005T162141Z_20241007T030258Z_S2A_30_v1.0_B10_DEM.csv",
        "image": "./png/OPERA_L3_DSWx-HLS_T16TGQ_20241005T162141Z_20241007T030258Z_S2A_30_v1.0_B10_DEM.png",
        "tif": "./tif/OPERA_L3_DSWx-HLS_T16TGQ_20241005T162141Z_20241007T030258Z_S2A_30_v1.0_B10_DEM.tif",
        "bounding_box": {
            "southwest": {
                "lat": 44.13800768756645,
                "lng": -78.50015121100672
            },
            "northeast": {
                "lat": 45.08595696003225,
                "lng": -77.06390244387636
            }
        }
    },
    {
        "name": "OPERA_L3_DSWx-HLS_T17TPH_20241027T161259Z_20241029T031611Z_S2B_30_v1.0_B10_DEM",
        "csv": "./csv/OPERA_L3_DSWx-HLS_T17TPH_20241027T161259Z_20241029T031611Z_S2B_30_v1.0_B10_DEM.csv",
        "image": "./png/OPERA_L3_DSWx-HLS_T17TPH_20241027T161259Z_20241029T031611Z_S2B_30_v1.0_B10_DEM.png",
        "tif": "./tif/OPERA_L3_DSWx-HLS_T17TPH_20241027T161259Z_20241029T031611Z_S2B_30_v1.0_B10_DEM.tif",
        "bounding_box": {
            "southwest": {
                "lat": 42.35764145272198,
                "lng": -79.78571286582691
            },
            "northeast": {
                "lat": 43.32357659590352,
                "lng": -78.41246381590419
            }
        }
    },
    {
        "name": "OPERA_L3_DSWx-HLS_T17TQH_20241027T161259Z_20241029T014503Z_S2B_30_v1.0_B10_DEM",
        "csv": "./csv/OPERA_L3_DSWx-HLS_T17TQH_20241027T161259Z_20241029T014503Z_S2B_30_v1.0_B10_DEM.csv",
        "image": "./png/OPERA_L3_DSWx-HLS_T17TQH_20241027T161259Z_20241029T014503Z_S2B_30_v1.0_B10_DEM.png",
        "tif": "./tif/OPERA_L3_DSWx-HLS_T17TQH_20241027T161259Z_20241029T014503Z_S2B_30_v1.0_B10_DEM.tif",
        "bounding_box": {
            "southwest": {
                "lat": 42.33837210143769,
                "lng": -78.57270445125795
            },
            "northeast": {
                "lat": 43.28908179869983,
                "lng": -77.18187629629627
            }
        }
    },
    {
        "name": "OPERA_L3_DSWx-HLS_T17TMK_20241005T162141Z_20241007T030301Z_S2A_30_v1.0_B10_DEM",
        "csv": "./csv/OPERA_L3_DSWx-HLS_T17TMK_20241005T162141Z_20241007T030301Z_S2A_30_v1.0_B10_DEM.csv",
        "image": "./png/OPERA_L3_DSWx-HLS_T17TMK_20241005T162141Z_20241007T030301Z_S2A_30_v1.0_B10_DEM.png",
        "tif": "./tif/OPERA_L3_DSWx-HLS_T17TMK_20241005T162141Z_20241007T030301Z_S2A_30_v1.0_B10_DEM.tif",
        "bounding_box": {
            "southwest": {
                "lat": 44.15851530914402,
                "lng": -82.25111705335412
            },
            "northeast": {
                "lat": 45.153769755526426,
                "lng": -80.87583360281278
            }
        }
    },
    {
        "name": "OPERA_L3_DSWx-HLS_T17TNK_20241005T162141Z_20241007T030301Z_S2A_30_v1.0_B10_DEM",
        "csv": "./csv/OPERA_L3_DSWx-HLS_T17TNK_20241005T162141Z_20241007T030301Z_S2A_30_v1.0_B10_DEM.csv",
        "image": "./png/OPERA_L3_DSWx-HLS_T17TNK_20241005T162141Z_20241007T030301Z_S2A_30_v1.0_B10_DEM.png",
        "tif": "./tif/OPERA_L3_DSWx-HLS_T17TNK_20241005T162141Z_20241007T030301Z_S2A_30_v1.0_B10_DEM.tif",
        "bounding_box": {
            "southwest": {
                "lat": 44.16536649504643,
                "lng": -81.00025015292682
            },
            "northeast": {
                "lat": 45.14529967262968,
                "lng": -79.60358882685745
            }
        }
    },
    {
        "name": "OPERA_L3_DSWx-HLS_T17TNK_20241005T162141Z_20241007T040828Z_S2A_30_v1.0_B10_DEM",
        "csv": "./csv/OPERA_L3_DSWx-HLS_T17TNK_20241005T162141Z_20241007T040828Z_S2A_30_v1.0_B10_DEM.csv",
        "image": "./png/OPERA_L3_DSWx-HLS_T17TNK_20241005T162141Z_20241007T040828Z_S2A_30_v1.0_B10_DEM.png",
        "tif": "./tif/OPERA_L3_DSWx-HLS_T17TNK_20241005T162141Z_20241007T040828Z_S2A_30_v1.0_B10_DEM.tif",
        "bounding_box": {
            "southwest": {
                "lat": 44.16536649504643,
                "lng": -81.00025015292682
            },
            "northeast": {
                "lat": 45.14529967262968,
                "lng": -79.60358882685745
            }
        }
    }
]